{ "type": "Feature", "properties": { "name": "Cherry Tree", "status": "operating", "Region": "Victoria", "technology": "Wind", "Generator Capacity (MW)": 57.0, "Latitude": null, "Longitude": null }, "geometry": null },
{ "type": "Feature", "properties": { "name": "Elaine", "status": "operating", "Region": "Victoria", "technology": "Wind", "Generator Capacity (MW)": 83.0, "Latitude": null, "Longitude": null }, "geometry": null },
{ "type": "Feature", "properties": { "name": "Goonumbla", "status": "operating", "Region": "New South Wales", "technology": "Solar (Utility)", "Generator Capacity (MW)": 85.0, "Latitude": null, "Longitude": null }, "geometry": null },
{ "type": "Feature", "properties": { "name": "Grosvenor 1", "status": "operating", "Region": "Queensland", "technology": "Gas (Waste Coal Mine)", "Generator Capacity (MW)": 21.0, "Latitude": null, "Longitude": null }, "geometry": null },
{ "type": "Feature", "properties": { "name": "Grosvenor 1", "status": "operating", "Region": "Queensland", "technology": "Gas (Waste Coal Mine)", "Generator Capacity (MW)": 15.0, "Latitude": null, "Longitude": null }, "geometry": null },
{ "type": "Feature", "properties": { "name": "Kemps Creek", "status": "operating", "Region": "New South Wales", "technology": "Bioenergy (Biogas)", "Generator Capacity (MW)": 1.0, "Latitude": null, "Longitude": null }, "geometry": null },
{ "type": "Feature", "properties": { "name": "Metz N", "status": "operating", "Region": "New South Wales", "technology": "Solar (Utility)", "Generator Capacity (MW)": 135.0, "Latitude": null, "Longitude": null }, "geometry": null },
{ "type": "Feature", "properties": { "name": "Morganwhyalla Pipeline", "status": "operating", "Region": "South Australia", "technology": "Solar (Utility)", "Generator Capacity (MW)": 0.0, "Latitude": null, "Longitude": null }, "geometry": null },
{ "type": "Feature", "properties": { "name": "St Leonards Data Centre", "status": "operating", "Region": "Tasmania", "technology": null, "Generator Capacity (MW)": 0.0, "Latitude": null, "Longitude": null }, "geometry": null },
{ "type": "Feature", "properties": { "name": "Stapylton", "status": "operating", "Region": "Queensland", "technology": "Bioenergy (Biogas)", "Generator Capacity (MW)": 3.0, "Latitude": null, "Longitude": null }, "geometry": null },
{ "type": "Feature", "properties": { "name": "Wellington", "status": "operating", "Region": "New South Wales", "technology": "Solar (Utility)", "Generator Capacity (MW)": 216.0, "Latitude": null, "Longitude": null }, "geometry": null },
{ "type": "Feature", "properties": { "name": "White Rock", "status": "operating", "Region": "New South Wales", "technology": "Solar (Utility),Wind", "Generator Capacity (MW)": 197.0, "Latitude": null, "Longitude": null }, "geometry": null },
{ "type": "Feature", "properties": { "name": "Bolivar", "status": "operating", "Region": "South Australia", "technology": "Gas (CCGT)", "Generator Capacity (MW)": 128.0, "Latitude": null, "Longitude": null }, "geometry": null },
{ "type": "Feature", "properties": { "name": "Bomen", "status": "operating", "Region": "New South Wales", "technology": "Solar (Utility)", "Generator Capacity (MW)": 121.0, "Latitude": null, "Longitude": null }, "geometry": null },
